{"MRData":{"xmlns":"http:\/\/ergast.com\/mrd\/1.2","series":"f1","url":"http://ergast.com/api/f1/2006.json","limit":"30","offset":"0","total":"18","RaceTable":{"season":"2006","Races":[{"season":"2006","round":"1","url":"http:\/\/en.wikipedia.org\/wiki\/2006_Bahrain_Grand_Prix","raceName":"Bahrain Grand Prix","Circuit":{"circuitId":"bahrain","url":"http:\/\/en.wikipedia.org\/wiki\/Bahrain_International_Circuit","circuitName":"Bahrain International Circuit","Location":{"lat":"26.0325","long":"50.5106","locality":"Sakhir","country":"Bahrain"}},"date":"2006-03-12","time":"14:30:00Z"},{"season":"2006","round":"2","url":"http:\/\/en.wikipedia.org\/wiki\/2006_Malaysian_Grand_Prix","raceName":"Malaysian Grand Prix","Circuit":{"circuitId":"sepang","url":"http:\/\/en.wikipedia.org\/wiki\/Sepang_International_Circuit","circuitName":"Sepang International Circuit","Location":{"lat":"2.76083","long":"101.738","locality":"Kuala Lumpur","country":"Malaysia"}},"date":"2006-03-19","time":"15:00:00Z"},{"season":"2006","round":"3","url":"http:\/\/en.wikipedia.org\/wiki\/2006_Australian_Grand_Prix","raceName":"Australian Grand Prix","Circuit":{"circuitId":"albert_park","url":"http:\/\/en.wikipedia.org\/wiki\/Melbourne_Grand_Prix_Circuit","circuitName":"Albert Park Grand Prix Circuit","Location":{"lat":"-37.8497","long":"144.968","locality":"Melbourne","country":"Australia"}},"date":"2006-04-02","time":"14:00:00Z"},{"season":"2006","round":"4","url":"http:\/\/en.wikipedia.org\/wiki\/2006_San_Marino_Grand_Prix","raceName":"San Marino Grand Prix","Circuit":{"circuitId":"imola","url":"http:\/\/en.wikipedia.org\/wiki\/Autodromo_Enzo_e_Dino_Ferrari","circuitName":"Autodromo Enzo e Dino Ferrari","Location":{"lat":"44.3439","long":"11.7167","locality":"Imola","country":"Italy"}},"date":"2006-04-23","time":"14:00:00Z"},{"season":"2006","round":"5","url":"http:\/\/en.wikipedia.org\/wiki\/2006_European_Grand_Prix","raceName":"European Grand Prix","Circuit":{"circuitId":"nurburgring","url":"http:\/\/en.wikipedia.org\/wiki\/N%C3%BCrburgring","circuitName":"Nürburgring","Location":{"lat":"50.3356","long":"6.9475","locality":"Nürburg","country":"Germany"}},"date":"2006-05-07","time":"14:00:00Z"},{"season":"2006","round":"6","url":"http:\/\/en.wikipedia.org\/wiki\/2006_Spanish_Grand_Prix","raceName":"Spanish Grand Prix","Circuit":{"circuitId":"catalunya","url":"http:\/\/en.wikipedia.org\/wiki\/Circuit_de_Catalunya","circuitName":"Circuit de Catalunya","Location":{"lat":"41.57","long":"2.26111","locality":"Montmeló","country":"Spain"}},"date":"2006-05-14","time":"14:00:00Z"},{"season":"2006","round":"7","url":"http:\/\/en.wikipedia.org\/wiki\/2006_Monaco_Grand_Prix","raceName":"Monaco Grand Prix","Circuit":{"circuitId":"monaco","url":"http:\/\/en.wikipedia.org\/wiki\/Circuit_de_Monaco","circuitName":"Circuit de Monaco","Location":{"lat":"43.7347","long":"7.42056","locality":"Monte-Carlo","country":"Monaco"}},"date":"2006-05-28","time":"14:00:00Z"},{"season":"2006","round":"8","url":"http:\/\/en.wikipedia.org\/wiki\/2006_British_Grand_Prix","raceName":"British Grand Prix","Circuit":{"circuitId":"silverstone","url":"http:\/\/en.wikipedia.org\/wiki\/Silverstone_Circuit","circuitName":"Silverstone Circuit","Location":{"lat":"52.0786","long":"-1.01694","locality":"Silverstone","country":"UK"}},"date":"2006-06-11","time":"12:00:00Z"},{"season":"2006","round":"9","url":"http:\/\/en.wikipedia.org\/wiki\/2006_Canadian_Grand_Prix","raceName":"Canadian Grand Prix","Circuit":{"circuitId":"villeneuve","url":"http:\/\/en.wikipedia.org\/wiki\/Circuit_Gilles_Villeneuve","circuitName":"Circuit Gilles Villeneuve","Location":{"lat":"45.5","long":"-73.5228","locality":"Montreal","country":"Canada"}},"date":"2006-06-25","time":"13:00:00Z"},{"season":"2006","round":"10","url":"http:\/\/en.wikipedia.org\/wiki\/2006_United_States_Grand_Prix","raceName":"United States Grand Prix","Circuit":{"circuitId":"indianapolis","url":"http:\/\/en.wikipedia.org\/wiki\/Indianapolis_Motor_Speedway","circuitName":"Indianapolis Motor Speedway","Location":{"lat":"39.795","long":"-86.2347","locality":"Indianapolis","country":"United States"}},"date":"2006-07-02","time":"14:00:00Z"},{"season":"2006","round":"11","url":"http:\/\/en.wikipedia.org\/wiki\/2006_French_Grand_Prix","raceName":"French Grand Prix","Circuit":{"circuitId":"magny_cours","url":"http:\/\/en.wikipedia.org\/wiki\/Circuit_de_Nevers_Magny-Cours","circuitName":"Circuit de Nevers Magny-Cours","Location":{"lat":"46.8642","long":"3.16361","locality":"Magny Cours","country":"France"}},"date":"2006-07-16","time":"14:00:00Z"},{"season":"2006","round":"12","url":"http:\/\/en.wikipedia.org\/wiki\/2006_German_Grand_Prix","raceName":"German Grand Prix","Circuit":{"circuitId":"hockenheimring","url":"http:\/\/en.wikipedia.org\/wiki\/Hockenheimring","circuitName":"Hockenheimring","Location":{"lat":"49.3278","long":"8.56583","locality":"Hockenheim","country":"Germany"}},"date":"2006-07-30","time":"14:00:00Z"},{"season":"2006","round":"13","url":"http:\/\/en.wikipedia.org\/wiki\/2006_Hungarian_Grand_Prix","raceName":"Hungarian Grand Prix","Circuit":{"circuitId":"hungaroring","url":"http:\/\/en.wikipedia.org\/wiki\/Hungaroring","circuitName":"Hungaroring","Location":{"lat":"47.5789","long":"19.2486","locality":"Budapest","country":"Hungary"}},"date":"2006-08-06","time":"14:00:00Z"},{"season":"2006","round":"14","url":"http:\/\/en.wikipedia.org\/wiki\/2006_Turkish_Grand_Prix","raceName":"Turkish Grand Prix","Circuit":{"circuitId":"istanbul","url":"http:\/\/en.wikipedia.org\/wiki\/Istanbul_Park","circuitName":"Istanbul Park","Location":{"lat":"40.9517","long":"29.405","locality":"Istanbul","country":"Turkey"}},"date":"2006-08-27","time":"15:00:00Z"},{"season":"2006","round":"15","url":"http:\/\/en.wikipedia.org\/wiki\/2006_Italian_Grand_Prix","raceName":"Italian Grand Prix","Circuit":{"circuitId":"monza","url":"http:\/\/en.wikipedia.org\/wiki\/Autodromo_Nazionale_Monza","circuitName":"Autodromo Nazionale di Monza","Location":{"lat":"45.6156","long":"9.28111","locality":"Monza","country":"Italy"}},"date":"2006-09-10","time":"14:00:00Z"},{"season":"2006","round":"16","url":"http:\/\/en.wikipedia.org\/wiki\/2006_Chinese_Grand_Prix","raceName":"Chinese Grand Prix","Circuit":{"circuitId":"shanghai","url":"http:\/\/en.wikipedia.org\/wiki\/Shanghai_International_Circuit","circuitName":"Shanghai International Circuit","Location":{"lat":"31.3389","long":"121.22","locality":"Shanghai","country":"China"}},"date":"2006-10-01","time":"14:00:00Z"},{"season":"2006","round":"17","url":"http:\/\/en.wikipedia.org\/wiki\/2006_Japanese_Grand_Prix","raceName":"Japanese Grand Prix","Circuit":{"circuitId":"suzuka","url":"http:\/\/en.wikipedia.org\/wiki\/Suzuka_Circuit","circuitName":"Suzuka Circuit","Location":{"lat":"34.8431","long":"136.541","locality":"Suzuka","country":"Japan"}},"date":"2006-10-08","time":"14:00:00Z"},{"season":"2006","round":"18","url":"http:\/\/en.wikipedia.org\/wiki\/2006_Brazilian_Grand_Prix","raceName":"Brazilian Grand Prix","Circuit":{"circuitId":"interlagos","url":"http:\/\/en.wikipedia.org\/wiki\/Aut%C3%B3dromo_Jos%C3%A9_Carlos_Pace","circuitName":"Autódromo José Carlos Pace","Location":{"lat":"-23.7036","long":"-46.6997","locality":"São Paulo","country":"Brazil"}},"date":"2006-10-22","time":"14:00:00Z"}]}}}