{"MRData":{"xmlns":"http:\/\/ergast.com\/mrd\/1.2","series":"f1","url":"http://ergast.com/api/f1/1988.json","limit":"30","offset":"0","total":"16","RaceTable":{"season":"1988","Races":[{"season":"1988","round":"1","url":"http:\/\/en.wikipedia.org\/wiki\/1988_Brazilian_Grand_Prix","raceName":"Brazilian Grand Prix","Circuit":{"circuitId":"jacarepagua","url":"http:\/\/en.wikipedia.org\/wiki\/Aut%C3%B3dromo_Internacional_Nelson_Piquet","circuitName":"Autódromo Internacional Nelson Piquet","Location":{"lat":"-22.9756","long":"-43.395","locality":"Rio de Janeiro","country":"Brazil"}},"date":"1988-04-03"},{"season":"1988","round":"2","url":"http:\/\/en.wikipedia.org\/wiki\/1988_San_Marino_Grand_Prix","raceName":"San Marino Grand Prix","Circuit":{"circuitId":"imola","url":"http:\/\/en.wikipedia.org\/wiki\/Autodromo_Enzo_e_Dino_Ferrari","circuitName":"Autodromo Enzo e Dino Ferrari","Location":{"lat":"44.3439","long":"11.7167","locality":"Imola","country":"Italy"}},"date":"1988-05-01"},{"season":"1988","round":"3","url":"http:\/\/en.wikipedia.org\/wiki\/1988_Monaco_Grand_Prix","raceName":"Monaco Grand Prix","Circuit":{"circuitId":"monaco","url":"http:\/\/en.wikipedia.org\/wiki\/Circuit_de_Monaco","circuitName":"Circuit de Monaco","Location":{"lat":"43.7347","long":"7.42056","locality":"Monte-Carlo","country":"Monaco"}},"date":"1988-05-15"},{"season":"1988","round":"4","url":"http:\/\/en.wikipedia.org\/wiki\/1988_Mexican_Grand_Prix","raceName":"Mexican Grand Prix","Circuit":{"circuitId":"rodriguez","url":"http:\/\/en.wikipedia.org\/wiki\/Autodromo_Hermanos_Rodr%C3%ADguez","circuitName":"Autódromo Hermanos Rodríguez","Location":{"lat":"19.4327","long":"-99.1333","locality":"Mexico City","country":"Mexico"}},"date":"1988-05-29"},{"season":"1988","round":"5","url":"http:\/\/en.wikipedia.org\/wiki\/1988_Canadian_Grand_Prix","raceName":"Canadian Grand Prix","Circuit":{"circuitId":"villeneuve","url":"http:\/\/en.wikipedia.org\/wiki\/Circuit_Gilles_Villeneuve","circuitName":"Circuit Gilles Villeneuve","Location":{"lat":"45.5","long":"-73.5228","locality":"Montreal","country":"Canada"}},"date":"1988-06-12"},{"season":"1988","round":"6","url":"http:\/\/en.wikipedia.org\/wiki\/1988_Detroit_Grand_Prix","raceName":"Detroit Grand Prix","Circuit":{"circuitId":"detroit","url":"http:\/\/en.wikipedia.org\/wiki\/Detroit_street_circuit","circuitName":"Detroit Street Circuit","Location":{"lat":"42.3298","long":"-83.0401","locality":"Detroit","country":"USA"}},"date":"1988-06-19"},{"season":"1988","round":"7","url":"http:\/\/en.wikipedia.org\/wiki\/1988_French_Grand_Prix","raceName":"French Grand Prix","Circuit":{"circuitId":"ricard","url":"http:\/\/en.wikipedia.org\/wiki\/Paul_Ricard_Circuit","circuitName":"Circuit Paul Ricard","Location":{"lat":"43.2506","long":"5.79167","locality":"Le Castellet","country":"France"}},"date":"1988-07-03"},{"season":"1988","round":"8","url":"http:\/\/en.wikipedia.org\/wiki\/1988_British_Grand_Prix","raceName":"British Grand Prix","Circuit":{"circuitId":"silverstone","url":"http:\/\/en.wikipedia.org\/wiki\/Silverstone_Circuit","circuitName":"Silverstone Circuit","Location":{"lat":"52.0786","long":"-1.01694","locality":"Silverstone","country":"UK"}},"date":"1988-07-10"},{"season":"1988","round":"9","url":"http:\/\/en.wikipedia.org\/wiki\/1988_German_Grand_Prix","raceName":"German Grand Prix","Circuit":{"circuitId":"hockenheimring","url":"http:\/\/en.wikipedia.org\/wiki\/Hockenheimring","circuitName":"Hockenheimring","Location":{"lat":"49.3278","long":"8.56583","locality":"Hockenheim","country":"Germany"}},"date":"1988-07-24"},{"season":"1988","round":"10","url":"http:\/\/en.wikipedia.org\/wiki\/1988_Hungarian_Grand_Prix","raceName":"Hungarian Grand Prix","Circuit":{"circuitId":"hungaroring","url":"http:\/\/en.wikipedia.org\/wiki\/Hungaroring","circuitName":"Hungaroring","Location":{"lat":"47.5789","long":"19.2486","locality":"Budapest","country":"Hungary"}},"date":"1988-08-07"},{"season":"1988","round":"11","url":"http:\/\/en.wikipedia.org\/wiki\/1988_Belgian_Grand_Prix","raceName":"Belgian Grand Prix","Circuit":{"circuitId":"spa","url":"http:\/\/en.wikipedia.org\/wiki\/Circuit_de_Spa-Francorchamps","circuitName":"Circuit de Spa-Francorchamps","Location":{"lat":"50.4372","long":"5.97139","locality":"Spa","country":"Belgium"}},"date":"1988-08-28"},{"season":"1988","round":"12","url":"http:\/\/en.wikipedia.org\/wiki\/1988_Italian_Grand_Prix","raceName":"Italian Grand Prix","Circuit":{"circuitId":"monza","url":"http:\/\/en.wikipedia.org\/wiki\/Autodromo_Nazionale_Monza","circuitName":"Autodromo Nazionale di Monza","Location":{"lat":"45.6156","long":"9.28111","locality":"Monza","country":"Italy"}},"date":"1988-09-11"},{"season":"1988","round":"13","url":"http:\/\/en.wikipedia.org\/wiki\/1988_Portuguese_Grand_Prix","raceName":"Portuguese Grand Prix","Circuit":{"circuitId":"estoril","url":"http:\/\/en.wikipedia.org\/wiki\/Aut%C3%B3dromo_do_Estoril","circuitName":"Autódromo do Estoril","Location":{"lat":"38.7506","long":"-9.39417","locality":"Estoril","country":"Portugal"}},"date":"1988-09-25"},{"season":"1988","round":"14","url":"http:\/\/en.wikipedia.org\/wiki\/1988_Spanish_Grand_Prix","raceName":"Spanish Grand Prix","Circuit":{"circuitId":"jerez","url":"http:\/\/en.wikipedia.org\/wiki\/Circuito_Permanente_de_Jerez","circuitName":"Circuito de Jerez","Location":{"lat":"36.7083","long":"-6.03417","locality":"Jerez de la Frontera","country":"Spain"}},"date":"1988-10-02"},{"season":"1988","round":"15","url":"http:\/\/en.wikipedia.org\/wiki\/1988_Japanese_Grand_Prix","raceName":"Japanese Grand Prix","Circuit":{"circuitId":"suzuka","url":"http:\/\/en.wikipedia.org\/wiki\/Suzuka_Circuit","circuitName":"Suzuka Circuit","Location":{"lat":"34.8431","long":"136.541","locality":"Suzuka","country":"Japan"}},"date":"1988-10-30"},{"season":"1988","round":"16","url":"http:\/\/en.wikipedia.org\/wiki\/1988_Australian_Grand_Prix","raceName":"Australian Grand Prix","Circuit":{"circuitId":"adelaide","url":"http:\/\/en.wikipedia.org\/wiki\/Adelaide_Street_Circuit","circuitName":"Adelaide Street Circuit","Location":{"lat":"-34.9272","long":"138.617","locality":"Adelaide","country":"Australia"}},"date":"1988-11-13"}]}}}