{"MRData":{"xmlns":"http:\/\/ergast.com\/mrd\/1.2","series":"f1","url":"http://ergast.com/api/f1/1990.json","limit":"30","offset":"0","total":"16","RaceTable":{"season":"1990","Races":[{"season":"1990","round":"1","url":"http:\/\/en.wikipedia.org\/wiki\/1990_United_States_Grand_Prix","raceName":"United States Grand Prix","Circuit":{"circuitId":"phoenix","url":"http:\/\/en.wikipedia.org\/wiki\/Phoenix_street_circuit","circuitName":"Phoenix street circuit","Location":{"lat":"33.4479","long":"-112.075","locality":"Phoenix","country":"United States"}},"date":"1990-03-11"},{"season":"1990","round":"2","url":"http:\/\/en.wikipedia.org\/wiki\/1990_Brazilian_Grand_Prix","raceName":"Brazilian Grand Prix","Circuit":{"circuitId":"interlagos","url":"http:\/\/en.wikipedia.org\/wiki\/Aut%C3%B3dromo_Jos%C3%A9_Carlos_Pace","circuitName":"Autódromo José Carlos Pace","Location":{"lat":"-23.7036","long":"-46.6997","locality":"São Paulo","country":"Brazil"}},"date":"1990-03-25"},{"season":"1990","round":"3","url":"http:\/\/en.wikipedia.org\/wiki\/1990_San_Marino_Grand_Prix","raceName":"San Marino Grand Prix","Circuit":{"circuitId":"imola","url":"http:\/\/en.wikipedia.org\/wiki\/Autodromo_Enzo_e_Dino_Ferrari","circuitName":"Autodromo Enzo e Dino Ferrari","Location":{"lat":"44.3439","long":"11.7167","locality":"Imola","country":"Italy"}},"date":"1990-05-13"},{"season":"1990","round":"4","url":"http:\/\/en.wikipedia.org\/wiki\/1990_Monaco_Grand_Prix","raceName":"Monaco Grand Prix","Circuit":{"circuitId":"monaco","url":"http:\/\/en.wikipedia.org\/wiki\/Circuit_de_Monaco","circuitName":"Circuit de Monaco","Location":{"lat":"43.7347","long":"7.42056","locality":"Monte-Carlo","country":"Monaco"}},"date":"1990-05-27"},{"season":"1990","round":"5","url":"http:\/\/en.wikipedia.org\/wiki\/1990_Canadian_Grand_Prix","raceName":"Canadian Grand Prix","Circuit":{"circuitId":"villeneuve","url":"http:\/\/en.wikipedia.org\/wiki\/Circuit_Gilles_Villeneuve","circuitName":"Circuit Gilles Villeneuve","Location":{"lat":"45.5","long":"-73.5228","locality":"Montreal","country":"Canada"}},"date":"1990-06-10"},{"season":"1990","round":"6","url":"http:\/\/en.wikipedia.org\/wiki\/1990_Mexican_Grand_Prix","raceName":"Mexican Grand Prix","Circuit":{"circuitId":"rodriguez","url":"http:\/\/en.wikipedia.org\/wiki\/Autodromo_Hermanos_Rodr%C3%ADguez","circuitName":"Autódromo Hermanos Rodríguez","Location":{"lat":"19.4327","long":"-99.1333","locality":"Mexico City","country":"Mexico"}},"date":"1990-06-24"},{"season":"1990","round":"7","url":"http:\/\/en.wikipedia.org\/wiki\/1990_French_Grand_Prix","raceName":"French Grand Prix","Circuit":{"circuitId":"ricard","url":"http:\/\/en.wikipedia.org\/wiki\/Paul_Ricard_Circuit","circuitName":"Circuit Paul Ricard","Location":{"lat":"43.2506","long":"5.79167","locality":"Le Castellet","country":"France"}},"date":"1990-07-08"},{"season":"1990","round":"8","url":"http:\/\/en.wikipedia.org\/wiki\/1990_British_Grand_Prix","raceName":"British Grand Prix","Circuit":{"circuitId":"silverstone","url":"http:\/\/en.wikipedia.org\/wiki\/Silverstone_Circuit","circuitName":"Silverstone Circuit","Location":{"lat":"52.0786","long":"-1.01694","locality":"Silverstone","country":"UK"}},"date":"1990-07-15"},{"season":"1990","round":"9","url":"http:\/\/en.wikipedia.org\/wiki\/1990_German_Grand_Prix","raceName":"German Grand Prix","Circuit":{"circuitId":"hockenheimring","url":"http:\/\/en.wikipedia.org\/wiki\/Hockenheimring","circuitName":"Hockenheimring","Location":{"lat":"49.3278","long":"8.56583","locality":"Hockenheim","country":"Germany"}},"date":"1990-07-29"},{"season":"1990","round":"10","url":"http:\/\/en.wikipedia.org\/wiki\/1990_Hungarian_Grand_Prix","raceName":"Hungarian Grand Prix","Circuit":{"circuitId":"hungaroring","url":"http:\/\/en.wikipedia.org\/wiki\/Hungaroring","circuitName":"Hungaroring","Location":{"lat":"47.5789","long":"19.2486","locality":"Budapest","country":"Hungary"}},"date":"1990-08-12"},{"season":"1990","round":"11","url":"http:\/\/en.wikipedia.org\/wiki\/1990_Belgian_Grand_Prix","raceName":"Belgian Grand Prix","Circuit":{"circuitId":"spa","url":"http:\/\/en.wikipedia.org\/wiki\/Circuit_de_Spa-Francorchamps","circuitName":"Circuit de Spa-Francorchamps","Location":{"lat":"50.4372","long":"5.97139","locality":"Spa","country":"Belgium"}},"date":"1990-08-26"},{"season":"1990","round":"12","url":"http:\/\/en.wikipedia.org\/wiki\/1990_Italian_Grand_Prix","raceName":"Italian Grand Prix","Circuit":{"circuitId":"monza","url":"http:\/\/en.wikipedia.org\/wiki\/Autodromo_Nazionale_Monza","circuitName":"Autodromo Nazionale di Monza","Location":{"lat":"45.6156","long":"9.28111","locality":"Monza","country":"Italy"}},"date":"1990-09-09"},{"season":"1990","round":"13","url":"http:\/\/en.wikipedia.org\/wiki\/1990_Portuguese_Grand_Prix","raceName":"Portuguese Grand Prix","Circuit":{"circuitId":"estoril","url":"http:\/\/en.wikipedia.org\/wiki\/Aut%C3%B3dromo_do_Estoril","circuitName":"Autódromo do Estoril","Location":{"lat":"38.7506","long":"-9.39417","locality":"Estoril","country":"Portugal"}},"date":"1990-09-23"},{"season":"1990","round":"14","url":"http:\/\/en.wikipedia.org\/wiki\/1990_Spanish_Grand_Prix","raceName":"Spanish Grand Prix","Circuit":{"circuitId":"jerez","url":"http:\/\/en.wikipedia.org\/wiki\/Circuito_Permanente_de_Jerez","circuitName":"Circuito de Jerez","Location":{"lat":"36.7083","long":"-6.03417","locality":"Jerez de la Frontera","country":"Spain"}},"date":"1990-09-30"},{"season":"1990","round":"15","url":"http:\/\/en.wikipedia.org\/wiki\/1990_Japanese_Grand_Prix","raceName":"Japanese Grand Prix","Circuit":{"circuitId":"suzuka","url":"http:\/\/en.wikipedia.org\/wiki\/Suzuka_Circuit","circuitName":"Suzuka Circuit","Location":{"lat":"34.8431","long":"136.541","locality":"Suzuka","country":"Japan"}},"date":"1990-10-21"},{"season":"1990","round":"16","url":"http:\/\/en.wikipedia.org\/wiki\/1990_Australian_Grand_Prix","raceName":"Australian Grand Prix","Circuit":{"circuitId":"adelaide","url":"http:\/\/en.wikipedia.org\/wiki\/Adelaide_Street_Circuit","circuitName":"Adelaide Street Circuit","Location":{"lat":"-34.9272","long":"138.617","locality":"Adelaide","country":"Australia"}},"date":"1990-11-04"}]}}}